<?xml version="1.0" encoding="utf-8" standalone="yes"?>
<gpx version="1.1" creator="GPS Visualizer https://www.gpsvisualizer.com/" xmlns="http://www.topografix.com/GPX/1/1" xmlns:xsi="http://www.w3.org/2001/XMLSchema-instance" xsi:schemaLocation="http://www.topografix.com/GPX/1/1 http://www.topografix.com/GPX/1/1/gpx.xsd">
<wpt lat="40.0426596" lon="-75.2093074">
  <name>Frog Pond</name>
  <desc>visited 8/17/2019</desc>
</wpt>
<wpt lat="40.0415456" lon="-75.2095322">
  <name>Cool narrow bridge</name>
  <desc>Visited 8/17/2019</desc>
</wpt>
<wpt lat="40.0651243" lon="-75.1979649">
  <name>The Grotto</name>
  <desc>??</desc>
</wpt>
<wpt lat="40.0566583" lon="-75.2010119">
  <name>Emlen Meadow</name>
</wpt>
<wpt lat="40.0167491" lon="-75.2056676">
  <name>100 steps</name>
</wpt>
<wpt lat="40.0363024" lon="-75.2012535">
  <name>Dog Beach</name>
</wpt>
<wpt lat="40.04328" lon="-75.21278">
  <name>Gorgas Cave</name>
  <desc>Will need to turn left off trail and walk though grass to find a little trail on the other side of the creek</desc>
</wpt>
<wpt lat="40.04196" lon="-75.21128">
  <name>Old stairs to small building</name>
  <desc>staircase to weird little building just off trail</desc>
</wpt>
</gpx>