<?xml version="1.0" encoding="utf-8" standalone="yes"?>
<gpx version="1.1" creator="GPS Visualizer https://www.gpsvisualizer.com/" xmlns="http://www.topografix.com/GPX/1/1" xmlns:xsi="http://www.w3.org/2001/XMLSchema-instance" xsi:schemaLocation="http://www.topografix.com/GPX/1/1 http://www.topografix.com/GPX/1/1/gpx.xsd">
<wpt lat="40.0236204" lon="-75.1986986">
  <name>Gets you down to Lincoln Drive trail. Kinda steep w/ loose gravel/rocks</name>
</wpt>
<wpt lat="40.0271955" lon="-75.1972395">
  <name>trail here is narrow, high up and w/ stream crossing it - can get icy in winter</name>
</wpt>
<wpt lat="40.026499" lon="-75.1952563">
  <name>Lots of cool, big rocks on edge of cliff overlooking the creek</name>
</wpt>
<wpt lat="40.0325093" lon="-75.2055866">
  <name>Fence here does open, need to cross gold course to get to trail</name>
  <desc>seems weird, but follow the paved trail to the green, then cross it to the left.</desc>
</wpt>
<wpt lat="40.0348014" lon="-75.2010508">
  <name>Big tree across large trail, but you can go around it to a little aux trail</name>
</wpt>
<wpt lat="40.0427489" lon="-75.2109072">
  <name>Cool little overhanging rock feature</name>
</wpt>
<wpt lat="40.0443547" lon="-75.211626">
  <name>Small stream crossing trail, gets muddy/icy</name>
</wpt>
<wpt lat="40.0181673" lon="-75.2033342">
  <name>Always glass here for some reason</name>
</wpt>
<wpt lat="40.0696664" lon="-75.2308446">
  <name>need to walk through grass to get to trail\</name>
</wpt>
<wpt lat="40.0676876" lon="-75.2226585">
  <name>Lots of little rock "huts" hidden on side of trail</name>
</wpt>
<wpt lat="40.0251359" lon="-75.1995143">
  <name>Trailhead map is orientated upside down for some reason</name>
</wpt>
<wpt lat="40.074188" lon="-75.216707">
  <name>Cool old little bridge </name>
</wpt>
<wpt lat="40.075759" lon="-75.223226">
  <name>Stones laid out on trail like an old road </name>
</wpt>
<wpt lat="40.071568" lon="-75.224630">
  <name>Picnic Area (w/ firepits or grills)></name>
</wpt>
</gpx>